{
    "type": "FeatureCollection",
    "features": [
        {
            "type": "Feature",
            "properties": {
                "name": "Muar",
                "desc": "Muar, Johor, Malaysia"
            },
            "geometry": {
                "type": "Point",
                "coordinates": [
                    102.5848717,
                    2.0630519
                ]
            }
        },
        {
            "type": "Feature",
            "properties": {
                "name": "Port Kelang",
                "desc": "Port Klang, Selangor, Malaysia"
            },
            "geometry": {
                "type": "Point",
                "coordinates": [
                    101.39283,
                    2.999852
                ]
            }
        },
        {
            "type": "Feature",
            "properties": {
                "name": "Teluk Intan",
                "desc": "Teluk Intan, Perak, Malaysia"
            },
            "geometry": {
                "type": "Point",
                "coordinates": [
                    101.0206249,
                    4.022424
                ]
            }
        },
        {
            "type": "Feature",
            "properties": {
                "name": "Taiping",
                "desc": "Taiping, Perak, Malaysia"
            },
            "geometry": {
                "type": "Point",
                "coordinates": [
                    100.7416339,
                    4.851932
                ]
            }
        },
        {
            "type": "Feature",
            "properties": {
                "name": "Sungai Petani",
                "desc": "Sungai Petani, Kedah, Malaysia"
            },
            "geometry": {
                "type": "Point",
                "coordinates": [
                    100.4894179,
                    5.643589
                ]
            }
        },
        {
            "type": "Feature",
            "properties": {
                "name": "Jitra",
                "desc": "Jitra, Kedah, Malaysia"
            },
            "geometry": {
                "type": "Point",
                "coordinates": [
                    100.420232,
                    6.264421
                ]
            }
        },
        {
            "type": "Feature",
            "properties": {
                "name": "Hat Yai",
                "desc": "Hat Yai, Hat Yai District, Songkhla 90110, Thailand"
            },
            "geometry": {
                "type": "Point",
                "coordinates": [
                    100.4746879,
                    7.0086472
                ]
            }
        },
        {
            "type": "Feature",
            "properties": {
                "name": "Khao Luang National Park",
                "desc": "Khao Luang National Park, หมู่ 4 Khao Kaeo, Lan Saka District, Nakhon Si Thammarat 80230, Thailand"
            },
            "geometry": {
                "type": "Point",
                "coordinates": [
                    99.7345742,
                    8.3738116
                ]
            }
        },
        {
            "type": "Feature",
            "properties": {
                "name": "Surat Thani",
                "desc": "Surat Thani, Mueang Surat Thani District, Surat Thani, Thailand"
            },
            "geometry": {
                "type": "Point",
                "coordinates": [
                    99.3334198,
                    9.1341949
                ]
            }
        },
        {
            "type": "Feature",
            "properties": {
                "name": "Province de Chumpon",
                "desc": "Chumphon, Thailand"
            },
            "geometry": {
                "type": "Point",
                "coordinates": [
                    99.1800199,
                    10.4930496
                ]
            }
        },
        {
            "type": "Feature",
            "properties": {
                "name": "Mergui",
                "desc": "Myeik, Myanmar (Burma)"
            },
            "geometry": {
                "type": "Point",
                "coordinates": [
                    98.6270628,
                    12.4492291
                ]
            }
        },
        {
            "type": "Feature",
            "properties": {
                "name": "Tavoy",
                "desc": "Dawei, Myanmar (Burma)"
            },
            "geometry": {
                "type": "Point",
                "coordinates": [
                    98.193961,
                    14.082769
                ]
            }
        },
        {
            "type": "Feature",
            "properties": {
                "name": "Moulmein",
                "desc": "Mawlamyine, Myanmar (Burma)"
            },
            "geometry": {
                "type": "Point",
                "coordinates": [
                    97.6439611,
                    16.4543173
                ]
            }
        },
        {
            "type": "Feature",
            "properties": {
                "name": "Naypyidaw",
                "desc": "Naypyitaw, Myanmar (Burma)"
            },
            "geometry": {
                "type": "Point",
                "coordinates": [
                    96.0785104,
                    19.7633057
                ]
            }
        },
        {
            "type": "Feature",
            "properties": {
                "name": "Mandalay",
                "desc": "Mandalay, Myanmar (Burma)"
            },
            "geometry": {
                "type": "Point",
                "coordinates": [
                    96.0891032,
                    21.9588282
                ]
            }
        },
        {
            "type": "Feature",
            "properties": {
                "name": "Imphāl",
                "desc": "Imphal, Manipur, India"
            },
            "geometry": {
                "type": "Point",
                "coordinates": [
                    93.9368439,
                    24.8170111
                ]
            }
        }
    ]
}