{"type":"FeatureCollection","features":[{"type":"Feature","properties":{"name":"Melbourne Victoria","desc":"Melbourne, Victoria, Australia"},"geometry":{"type":"Point","coordinates":[144.9630576,-37.8136276]}},{"type":"Feature","properties":{"name":"Adelaide Australie-Méridionale","desc":"Adelaide, South Australia, Australia"},"geometry":{"type":"Point","coordinates":[138.6007456,-34.9284989]}},{"type":"Feature","properties":{"name":"Port Augusta Australie-Méridionale","desc":"Port Augusta, South Australia, Australia"},"geometry":{"type":"Point","coordinates":[137.7894394,-32.4952339]}},{"type":"Feature","properties":{"name":"Alice Springs Territoire du Nord","desc":"Alice Springs, Northern Territory, Australia"},"geometry":{"type":"Point","coordinates":[133.8807471,-23.698042]}},{"type":"Feature","properties":{"name":"Daly Waters Territoire du Nord","desc":"Daly Waters, Northern Territory 0852, Australia"},"geometry":{"type":"Point","coordinates":[133.369167,-16.253333]}},{"type":"Feature","properties":{"name":"Darwin Territoire du Nord","desc":"Darwin, Northern Territory, Australia"},"geometry":{"type":"Point","coordinates":[130.8456418,-12.4634403]}}]}